{"type":"FeatureCollection","features":[{"type":"Feature","properties":{"book":1,"series":1802,"place":"Nieuwkoop","originalPlace":"Nieuwkoop","description":"Tour de la rielle (?) abbaye","date":"1802-06-11","triangles":[]},"geometry":{"type":"Point","coordinates":[4.77977,52.15046]}},
{"type":"Feature","properties":{"book":1,"series":1802,"place":"Gorinchem","originalPlace":"Gorinchem","description":"","date":"1802-06-24","triangles":[]},"geometry":{"type":"Point","coordinates":[4.97266,51.82955]}},
{"type":"Feature","properties":{"book":1,"series":1802,"place":"Brielle","originalPlace":"Brielle","description":"","date":"1802-07-08","triangles":[]},"geometry":{"type":"Point","coordinates":[4.16225,51.90264]}},
{"type":"Feature","properties":{"book":1,"series":1802,"place":"Zierikzee","originalPlace":"Zierikzee","description":"","date":"1802-07-10","triangles":[]},"geometry":{"type":"Point","coordinates":[3.91477,51.65028]}},
{"type":"Feature","properties":{"book":1,"series":1802,"place":"Middelburg","originalPlace":"Middelbourg","description":"","date":"1802-07-14","triangles":[]},"geometry":{"type":"Point","coordinates":[3.61477,51.49958]}},
{"type":"Feature","properties":{"book":1,"series":1802,"place":"Breda","originalPlace":"Breda","description":"","date":"1802-07-21","triangles":[]},"geometry":{"type":"Point","coordinates":[4.777659944444444,51.58935072222222]}},
{"type":"Feature","properties":{"book":1,"series":1802,"place":"Hilvarenbeek","originalPlace":"Hilvarenbeek","description":"","date":"1802-07-27","triangles":[]},"geometry":{"type":"Point","coordinates":[5.139323555555555,51.48547661111111]}},
{"type":"Feature","properties":{"book":1,"series":1802,"place":"Lommel","originalPlace":"Lommel","description":"","date":"1802-07-31","triangles":[]},"geometry":{"type":"Point","coordinates":[5.317706972222222,51.22869991666667]}},
{"type":"Feature","properties":{"book":1,"series":1802,"place":"Hoogstraten","originalPlace":"Hoogstraten","description":"","date":"1802-08-04","triangles":[[{"place":"Breda","coordinates":[4.777659944444444,51.58935072222222]},{"place":"Hilvarenbeek","coordinates":[5.139323555555555,51.48547661111111]}],[{"place":"Hilvarenbeek","coordinates":[5.139323555555555,51.48547661111111]},{"place":"Lommel","coordinates":[5.317706972222222,51.22869991666667]}]]},"geometry":{"type":"Point","coordinates":[4.764301694444445,51.40111397222222]}},
{"type":"Feature","properties":{"book":1,"series":1802,"place":"Hulst","originalPlace":"Hulst","description":"","date":"1802-08-12","triangles":[[{"place":"Zierikzee","coordinates":[3.91477,51.65028]},{"place":"Middelburg","coordinates":[3.61477,51.49958]}]]},"geometry":{"type":"Point","coordinates":[4.056537555555556,51.28083011111111]}},
{"type":"Feature","properties":{"book":1,"series":1802,"place":"Assenede","originalPlace":"Assenede","description":"","date":"1802-08-17","triangles":[[{"place":"Middelburg","coordinates":[3.61477,51.49958]},{"place":"Hulst","coordinates":[4.056537555555556,51.28083011111111]}]]},"geometry":{"type":"Point","coordinates":[3.7556830000000003,51.22798736111111]}},
{"type":"Feature","properties":{"book":1,"series":1802,"place":"Aardenburg","originalPlace":"Aardenbourg","description":"","date":"1802-09-08","triangles":[[{"place":"Middelburg","coordinates":[3.61477,51.49958]},{"place":"Assenede","coordinates":[3.7556830000000003,51.22798736111111]}]]},"geometry":{"type":"Point","coordinates":[3.450080888888889,51.27328552777778]}},
{"type":"Feature","properties":{"book":1,"series":1802,"place":"Antwerpen","originalPlace":"Anvers","description":"Tour de notre Dame","date":"1802-09-15","triangles":[]},"geometry":{"type":"Point","coordinates":[4.403276527777778,51.220670500000004]}},
{"type":"Feature","properties":{"book":1,"series":1802,"place":"Bergen op Zoom","originalPlace":"Bergens op Zoom","description":"","date":"1802-09-20","triangles":[[{"place":"Hoogstraten","coordinates":[4.764301694444445,51.40111397222222]},{"place":"Antwerpen","coordinates":[4.403276527777778,51.220670500000004]}],[{"place":"Hulst","coordinates":[4.056537555555556,51.28083011111111]},{"place":"Antwerpen","coordinates":[4.403276527777778,51.220670500000004]}],[{"place":"Zierikzee","coordinates":[3.91477,51.65028]},{"place":"Hulst","coordinates":[4.056537555555556,51.28083011111111]}],[{"place":"Breda","coordinates":[4.777659944444444,51.58935072222222]},{"place":"Hoogstraten","coordinates":[4.764301694444445,51.40111397222222]}]]},"geometry":{"type":"Point","coordinates":[4.290536111111111,51.494723083333334]}},
{"type":"Feature","properties":{"book":1,"series":1802,"place":"Willemstad","originalPlace":"Willemstad","description":"","date":"1802-09-24","triangles":[[{"place":"Zierikzee","coordinates":[3.91477,51.65028]},{"place":"Bergen op Zoom","coordinates":[4.290536111111111,51.494723083333334]}],[{"place":"Breda","coordinates":[4.777659944444444,51.58935072222222]},{"place":"Bergen op Zoom","coordinates":[4.290536111111111,51.494723083333334]}],[{"place":"Brielle","coordinates":[4.16225,51.90264]},{"place":"Zierikzee","coordinates":[3.91477,51.65028]}]]},"geometry":{"type":"Point","coordinates":[4.440558972222222,51.692307694444445]}},
{"type":"Feature","properties":{"book":1,"series":1802,"place":"Rotterdam","originalPlace":"Rotterdam","description":"","date":"1802-09-27","triangles":[[{"place":"Brielle","coordinates":[4.16225,51.90264]},{"place":"Willemstad","coordinates":[4.440558972222222,51.692307694444445]}]]},"geometry":{"type":"Point","coordinates":[4.487647222222222,51.92186258333333]}},
{"type":"Feature","properties":{"book":2,"series":1803,"place":"Haarlem","originalPlace":"Haarlem","description":"","date":"1803-06-06","triangles":[]},"geometry":{"type":"Point","coordinates":[4.639968916666667,52.38160038888889]}},
{"type":"Feature","properties":{"book":2,"series":1803,"place":"Amsterdam","originalPlace":"Amsterdam","description":"Tour de l'Ouest","date":"1803-06-14","triangles":[[{"place":"Nieuwkoop","coordinates":[4.77977,52.15046]},{"place":"Haarlem","coordinates":[4.639968916666667,52.38160038888889]}]]},"geometry":{"type":"Point","coordinates":[4.886434888888889,52.37505688888889]}},
{"type":"Feature","properties":{"book":2,"series":1803,"place":"Naarden","originalPlace":"Naarden","description":"","date":"1803-07-02","triangles":[]},"geometry":{"type":"Point","coordinates":[5.165325666666666,52.29621572222222]}},
{"type":"Feature","properties":{"book":2,"series":1803,"place":"Alkmaar","originalPlace":"Alkmaar","description":"Tour de poids","date":"1803-07-18","triangles":[[{"place":"Haarlem","coordinates":[4.639968916666667,52.38160038888889]},{"place":"Amsterdam","coordinates":[4.886434888888889,52.37505688888889]}]]},"geometry":{"type":"Point","coordinates":[4.752936833333333,52.63193513888889]}},
{"type":"Feature","properties":{"book":2,"series":1803,"place":"Edam","originalPlace":"Edam","description":"Tour de carillon","date":"1803-07-24","triangles":[[{"place":"Amsterdam","coordinates":[4.886434888888889,52.37505688888889]},{"place":"Alkmaar","coordinates":[4.752936833333333,52.63193513888889]}],[{"place":"Amsterdam","coordinates":[4.886434888888889,52.37505688888889]},{"place":"Naarden","coordinates":[5.165325666666666,52.29621572222222]}]]},"geometry":{"type":"Point","coordinates":[5.049931111111111,52.51289302777778]}},
{"type":"Feature","properties":{"book":2,"series":1803,"place":"Kijkduin","originalPlace":"Signal de Kijkduin a Huisduinen?","description":"","date":"1803-07-30","triangles":[]},"geometry":{"type":"Point","coordinates":[4.724343583333333,52.95171783333333]}},
{"type":"Feature","properties":{"book":2,"series":1803,"place":"Schagen","originalPlace":"Schagen","description":"","date":"1803-08-02","triangles":[]},"geometry":{"type":"Point","coordinates":[4.798949666666667,52.78726847222222]}},
{"type":"Feature","properties":{"book":2,"series":1803,"place":"Medemblik","originalPlace":"Medemblik","description":"","date":"1803-08-04","triangles":[]},"geometry":{"type":"Point","coordinates":[5.106387888888889,52.77379641666666]}},
{"type":"Feature","properties":{"book":2,"series":1803,"place":"Enkhuizen","originalPlace":"Enkhuizen","description":"","date":"1803-08-06","triangles":[]},"geometry":{"type":"Point","coordinates":[5.29571638888889,52.70437202777778]}},
{"type":"Feature","properties":{"book":2,"series":1803,"place":"Hoorn","originalPlace":"Hoorn","description":"","date":"1803-08-08","triangles":[[{"place":"Alkmaar","coordinates":[4.752936833333333,52.63193513888889]},{"place":"Schagen","coordinates":[4.798949666666667,52.78726847222222]}],[{"place":"Alkmaar","coordinates":[4.752936833333333,52.63193513888889]},{"place":"Edam","coordinates":[5.049931111111111,52.51289302777778]}],[{"place":"Schagen","coordinates":[4.798949666666667,52.78726847222222]},{"place":"Medemblik","coordinates":[5.106387888888889,52.77379641666666]}],[{"place":"Edam","coordinates":[5.049931111111111,52.51289302777778]},{"place":"Enkhuizen","coordinates":[5.29571638888889,52.70437202777778]}],[{"place":"Medemblik","coordinates":[5.106387888888889,52.77379641666666]},{"place":"Enkhuizen","coordinates":[5.29571638888889,52.70437202777778]}]]},"geometry":{"type":"Point","coordinates":[5.062785722222222,52.64101911111111]}},
{"type":"Feature","properties":{"book":2,"series":1803,"place":"Urk","originalPlace":"Urk","description":"","date":"1803-08-10","triangles":[]},"geometry":{"type":"Point","coordinates":[5.596606861111111,52.66293722222222]}},
{"type":"Feature","properties":{"book":2,"series":1803,"place":"Harderwijk","originalPlace":"Harderwijk","description":"","date":"1803-08-15","triangles":[]},"geometry":{"type":"Point","coordinates":[5.619771027777778,52.34955683333334]}},
{"type":"Feature","properties":{"book":3,"series":1805,"place":"Amersfoort","originalPlace":"Amersfoort","description":"","date":"1805-05-30","triangles":[[{"place":"Naarden","coordinates":[5.165325666666666,52.29621572222222]},{"place":"Harderwijk","coordinates":[5.619771027777778,52.34955683333334]}]]},"geometry":{"type":"Point","coordinates":[5.390397472222222,52.155643222222224]}},
{"type":"Feature","properties":{"book":3,"series":1805,"place":"Veluwe","originalPlace":"Observatoire pref. Loo","description":"","date":"1805-06-07","triangles":[[{"place":"Harderwijk","coordinates":[5.619771027777778,52.34955683333334]},{"place":"Amersfoort","coordinates":[5.390397472222222,52.155643222222224]}]]},"geometry":{"type":"Point","coordinates":[5.861293972222223,52.2351745]}},
{"type":"Feature","properties":{"book":3,"series":1805,"place":"Kampen","originalPlace":"Kampen","description":"","date":"1805-06-26","triangles":[[{"place":"Urk","coordinates":[5.596606861111111,52.66293722222222]},{"place":"Harderwijk","coordinates":[5.619771027777778,52.34955683333334]}],[{"place":"Harderwijk","coordinates":[5.619771027777778,52.34955683333334]},{"place":"Veluwe","coordinates":[5.861293972222223,52.2351745]}]]},"geometry":{"type":"Point","coordinates":[5.919630416666667,52.55967222222222]}},
{"type":"Feature","properties":{"book":3,"series":1805,"place":"Zutphen","originalPlace":"Zutphen","description":"","date":"1805-07-07","triangles":[]},"geometry":{"type":"Point","coordinates":[6.198914111111112,52.140120805555554]}},
{"type":"Feature","properties":{"book":3,"series":1805,"place":"Imbosch","originalPlace":"Signal Imbosch","description":"","date":"1805-07-16","triangles":[[{"place":"Veluwe","coordinates":[5.861293972222223,52.2351745]},{"place":"Zutphen","coordinates":[6.198914111111112,52.140120805555554]}]]},"geometry":{"type":"Point","coordinates":[5.997640861111111,52.037351916666665]}},
{"type":"Feature","properties":{"book":3,"series":1805,"place":"Rhenen","originalPlace":"Rhenen","description":"","date":"1805-08-04","triangles":[[{"place":"Amersfoort","coordinates":[5.390397472222222,52.155643222222224]},{"place":"Veluwe","coordinates":[5.861293972222223,52.2351745]}],[{"place":"Veluwe","coordinates":[5.861293972222223,52.2351745]},{"place":"Imbosch","coordinates":[5.997640861111111,52.037351916666665]}]]},"geometry":{"type":"Point","coordinates":[5.567464611111111,51.957366138888894]}},
{"type":"Feature","properties":{"book":3,"series":1805,"place":"Den Bosch","originalPlace":"s-Hertogenbosch","description":"","date":"1805-08-11","triangles":[[{"place":"Gorinchem","coordinates":[4.97266,51.82955]},{"place":"Rhenen","coordinates":[5.567464611111111,51.957366138888894]}],[{"place":"Breda","coordinates":[4.777659944444444,51.58935072222222]},{"place":"Hilvarenbeek","coordinates":[5.139323555555555,51.48547661111111]}],[{"place":"Gorinchem","coordinates":[4.97266,51.82955]},{"place":"Breda","coordinates":[4.777659944444444,51.58935072222222]}]]},"geometry":{"type":"Point","coordinates":[5.3108968333333335,51.68835919444444]}},
{"type":"Feature","properties":{"book":3,"series":1805,"place":"Nederweert","originalPlace":"Nederweert","description":"","date":"1805-08-21","triangles":[]},"geometry":{"type":"Point","coordinates":[5.751446444444444,51.28628738888889]}},
{"type":"Feature","properties":{"book":3,"series":1805,"place":"Helmond","originalPlace":"Helmond","description":"","date":"1805-08-24","triangles":[[{"place":"Hilvarenbeek","coordinates":[5.139323555555555,51.48547661111111]},{"place":"Den Bosch","coordinates":[5.3108968333333335,51.68835919444444]}],[{"place":"Hilvarenbeek","coordinates":[5.139323555555555,51.48547661111111]},{"place":"Lommel","coordinates":[5.317706972222222,51.22869991666667]}],[{"place":"Lommel","coordinates":[5.317706972222222,51.22869991666667]},{"place":"Nederweert","coordinates":[5.751446444444444,51.28628738888889]}]]},"geometry":{"type":"Point","coordinates":[5.65941825,51.47880441666667]}},
{"type":"Feature","properties":{"book":3,"series":1805,"place":"Grave","originalPlace":"Grave","description":"","date":"1805-09-02","triangles":[[{"place":"Rhenen","coordinates":[5.567464611111111,51.957366138888894]},{"place":"Den Bosch","coordinates":[5.3108968333333335,51.68835919444444]}],[{"place":"Den Bosch","coordinates":[5.3108968333333335,51.68835919444444]},{"place":"Helmond","coordinates":[5.65941825,51.47880441666667]}]]},"geometry":{"type":"Point","coordinates":[5.743389444444444,51.760425444444444]}},
{"type":"Feature","properties":{"book":3,"series":1805,"place":"Vierlingsbeek","originalPlace":"Vierlingsbeek","description":"","date":"1805-09-09","triangles":[[{"place":"Helmond","coordinates":[5.65941825,51.47880441666667]},{"place":"Grave","coordinates":[5.743389444444444,51.760425444444444]}],[{"place":"Nederweert","coordinates":[5.751446444444444,51.28628738888889]},{"place":"Helmond","coordinates":[5.65941825,51.47880441666667]}]]},"geometry":{"type":"Point","coordinates":[6.014215138888889,51.596634083333335]}},
{"type":"Feature","properties":{"book":3,"series":1805,"place":"Nijmegen","originalPlace":"Nijmegen","description":"","date":"1805-09-15","triangles":[[{"place":"Rhenen","coordinates":[5.567464611111111,51.957366138888894]},{"place":"Grave","coordinates":[5.743389444444444,51.760425444444444]}],[{"place":"Imbosch","coordinates":[5.997640861111111,52.037351916666665]},{"place":"Rhenen","coordinates":[5.567464611111111,51.957366138888894]}],[{"place":"Grave","coordinates":[5.743389444444444,51.760425444444444]},{"place":"Vierlingsbeek","coordinates":[6.014215138888889,51.596634083333335]}]]},"geometry":{"type":"Point","coordinates":[5.8657520000000005,51.84835338888889]}},
{"type":"Feature","properties":{"book":4,"series":1807,"place":"Hettenheuvel","originalPlace":"Signal au Hettenheuvel","description":"","date":"1807-06-01","triangles":[[{"place":"Zutphen","coordinates":[6.198914111111112,52.140120805555554]},{"place":"Imbosch","coordinates":[5.997640861111111,52.037351916666665]}],[{"place":"Imbosch","coordinates":[5.997640861111111,52.037351916666665]},{"place":"Nijmegen","coordinates":[5.8657520000000005,51.84835338888889]}]]},"geometry":{"type":"Point","coordinates":[6.238158916666666,51.92150236111111]}},
{"type":"Feature","properties":{"book":4,"series":1807,"place":"Herikerberg","originalPlace":"Signal au Harickerberg","description":"","date":"1807-06-25","triangles":[]},"geometry":{"type":"Point","coordinates":[6.543790194444445,52.23618169444445]}},
{"type":"Feature","properties":{"book":4,"series":1807,"place":"Groenlo","originalPlace":"Groll","description":"","date":"1807-07-07","triangles":[[{"place":"Zutphen","coordinates":[6.198914111111112,52.140120805555554]},{"place":"Herikerberg","coordinates":[6.543790194444445,52.23618169444445]}],[{"place":"Zutphen","coordinates":[6.198914111111112,52.140120805555554]},{"place":"Hettenheuvel","coordinates":[6.238158916666666,51.92150236111111]}]]},"geometry":{"type":"Point","coordinates":[6.61781,52.04234]}},
{"type":"Feature","properties":{"book":4,"series":1807,"place":"Bocholt","originalPlace":"Boekholt","description":"","date":"1807-07-11","triangles":[[{"place":"Hettenheuvel","coordinates":[6.238158916666666,51.92150236111111]},{"place":"Groenlo","coordinates":[6.61781,52.04234]}]]},"geometry":{"type":"Point","coordinates":[6.617476611111111,51.838552416666666]}},
{"type":"Feature","properties":{"book":4,"series":1807,"place":"Ahaus","originalPlace":"Ahaus","description":"","date":"1807-07-20","triangles":[[{"place":"Groenlo","coordinates":[6.61781,52.04234]},{"place":"Bocholt","coordinates":[6.617476611111111,51.838552416666666]}],[{"place":"Herikerberg","coordinates":[6.543790194444445,52.23618169444445]},{"place":"Groenlo","coordinates":[6.61781,52.04234]}]]},"geometry":{"type":"Point","coordinates":[7.0105349722222225,52.076303583333335]}},
{"type":"Feature","properties":{"book":4,"series":1807,"place":"Oldenzaal","originalPlace":"Oldenzaal","description":"","date":"1807-07-26","triangles":[[{"place":"Herikerberg","coordinates":[6.543790194444445,52.23618169444445]},{"place":"Ahaus","coordinates":[7.0105349722222225,52.076303583333335]}]]},"geometry":{"type":"Point","coordinates":[6.9324746388888885,52.31289233333333]}},
{"type":"Feature","properties":{"book":4,"series":1807,"place":"Bentheim","originalPlace":"Bentheim (Chateau)","description":"","date":"1807-07-29","triangles":[[{"place":"Ahaus","coordinates":[7.0105349722222225,52.076303583333335]},{"place":"Oldenzaal","coordinates":[6.9324746388888885,52.31289233333333]}]]},"geometry":{"type":"Point","coordinates":[7.161101138888888,52.302889]}},
{"type":"Feature","properties":{"book":4,"series":1807,"place":"Hesepe","originalPlace":"Kirch Hesepe","description":"","date":"1807-08-04","triangles":[]},"geometry":{"type":"Point","coordinates":[7.240562277777778,52.62561436111111]}},
{"type":"Feature","properties":{"book":4,"series":1807,"place":"Uelsen","originalPlace":"Signal pred d'Ulsen","description":"","date":"1807-08-08","triangles":[[{"place":"Oldenzaal","coordinates":[6.9324746388888885,52.31289233333333]},{"place":"Bentheim","coordinates":[7.161101138888888,52.302889]}],[{"place":"Bentheim","coordinates":[7.161101138888888,52.302889]},{"place":"Hesepe","coordinates":[7.240562277777778,52.62561436111111]}]]},"geometry":{"type":"Point","coordinates":[6.873901694444444,52.513189805555555]}},
{"type":"Feature","properties":{"book":4,"series":1807,"place":"Coevorden","originalPlace":"Coevoorden","description":"","date":"1807-08-13","triangles":[[{"place":"Hesepe","coordinates":[7.240562277777778,52.62561436111111]},{"place":"Uelsen","coordinates":[6.873901694444444,52.513189805555555]}]]},"geometry":{"type":"Point","coordinates":[6.7436436111111115,52.66117791666667]}},
{"type":"Feature","properties":{"book":4,"series":1807,"place":"Lemelerberg","originalPlace":"Signal Lemelerberg","description":"","date":"1807-08-16","triangles":[[{"place":"Herikerberg","coordinates":[6.543790194444445,52.23618169444445]},{"place":"Oldenzaal","coordinates":[6.9324746388888885,52.31289233333333]}],[{"place":"Zutphen","coordinates":[6.198914111111112,52.140120805555554]},{"place":"Herikerberg","coordinates":[6.543790194444445,52.23618169444445]}],[{"place":"Oldenzaal","coordinates":[6.9324746388888885,52.31289233333333]},{"place":"Uelsen","coordinates":[6.873901694444444,52.513189805555555]}],[{"place":"Veluwe","coordinates":[5.861293972222223,52.2351745]},{"place":"Kampen","coordinates":[5.919630416666667,52.55967222222222]}],[{"place":"Veluwe","coordinates":[5.861293972222223,52.2351745]},{"place":"Zutphen","coordinates":[6.198914111111112,52.140120805555554]}],[{"place":"Uelsen","coordinates":[6.873901694444444,52.513189805555555]},{"place":"Coevorden","coordinates":[6.7436436111111115,52.66117791666667]}]]},"geometry":{"type":"Point","coordinates":[6.411266444444444,52.47354266666667]}},
{"type":"Feature","properties":{"book":5,"series":1807,"place":"Meppel","originalPlace":"Meppel","description":"","date":"1807-08-23","triangles":[[{"place":"Kampen","coordinates":[5.919630416666667,52.55967222222222]},{"place":"Lemelerberg","coordinates":[6.411266444444444,52.47354266666667]}]]},"geometry":{"type":"Point","coordinates":[6.193451250000001,52.69799033333333]}},
{"type":"Feature","properties":{"book":5,"series":1807,"place":"Blokzijl","originalPlace":"Blokzyl","description":"","date":"1807-08-27","triangles":[[{"place":"Kampen","coordinates":[5.919630416666667,52.55967222222222]},{"place":"Meppel","coordinates":[6.193451250000001,52.69799033333333]}],[{"place":"Urk","coordinates":[5.596606861111111,52.66293722222222]},{"place":"Kampen","coordinates":[5.919630416666667,52.55967222222222]}]]},"geometry":{"type":"Point","coordinates":[5.9643366944444445,52.72775869444445]}},
{"type":"Feature","properties":{"book":5,"series":1807,"place":"Lemmer","originalPlace":"Lemmer","description":"","date":"1807-08-29","triangles":[[{"place":"Urk","coordinates":[5.596606861111111,52.66293722222222]},{"place":"Blokzijl","coordinates":[5.9643366944444445,52.72775869444445]}]]},"geometry":{"type":"Point","coordinates":[5.714362638888889,52.845533888888895]}},
{"type":"Feature","properties":{"book":5,"series":1807,"place":"Robbezand","originalPlace":"Signal a Robbezand","description":"","date":"1807-09-05","triangles":[]},"geometry":{"type":"Point","coordinates":[5.151526444444444,53.063056305555556]}},
{"type":"Feature","properties":{"book":5,"series":1807,"place":"Oosterland","originalPlace":"Oosterland a Wieringue","description":"","date":"1807-09-21","triangles":[[{"place":"Kijkduin","coordinates":[4.724343583333333,52.95171783333333]},{"place":"Schagen","coordinates":[4.798949666666667,52.78726847222222]}],[{"place":"Schagen","coordinates":[4.798949666666667,52.78726847222222]},{"place":"Medemblik","coordinates":[5.106387888888889,52.77379641666666]}]]},"geometry":{"type":"Point","coordinates":[5.013460805555555,52.93206922222222]}},
{"type":"Feature","properties":{"book":5,"series":1807,"place":"Oosterend","originalPlace":"Oosterend a Texel","description":"","date":"1807-09-25","triangles":[[{"place":"Robbezand","coordinates":[5.151526444444444,53.063056305555556]},{"place":"Oosterland","coordinates":[5.013460805555555,52.93206922222222]}],[{"place":"Kijkduin","coordinates":[4.724343583333333,52.95171783333333]},{"place":"Oosterland","coordinates":[5.013460805555555,52.93206922222222]}]]},"geometry":{"type":"Point","coordinates":[4.87594,53.084868444444446]}},
{"type":"Feature","properties":{"book":5,"series":1807,"place":"Vlieland","originalPlace":"Le Tanel a Vlieland","description":"","date":"1807-09-28","triangles":[[{"place":"Robbezand","coordinates":[5.151526444444444,53.063056305555556]},{"place":"Oosterend","coordinates":[4.87594,53.084868444444446]}]]},"geometry":{"type":"Point","coordinates":[5.061154416666667,53.29667661111111]}},
{"type":"Feature","properties":{"book":5,"series":1807,"place":"Midsland","originalPlace":"Midsland a Terschelling","description":"","date":"1807-09-29","triangles":[]},"geometry":{"type":"Point","coordinates":[5.28504,53.38298]}},
{"type":"Feature","properties":{"book":5,"series":1807,"place":"Leeuwarden","originalPlace":"Leeuwarden","description":"","date":"1807-10-02","triangles":[]},"geometry":{"type":"Point","coordinates":[5.793071,53.2037835]}},
{"type":"Feature","properties":{"book":5,"series":1807,"place":"Harlingen","originalPlace":"Harlingen","description":"Tour de la Petite Eglise","date":"1807-10-07","triangles":[[{"place":"Vlieland","coordinates":[5.061154416666667,53.29667661111111]},{"place":"Midsland","coordinates":[5.28504,53.38298]}],[{"place":"Robbezand","coordinates":[5.151526444444444,53.063056305555556]},{"place":"Vlieland","coordinates":[5.061154416666667,53.29667661111111]}]]},"geometry":{"type":"Point","coordinates":[5.415180611111111,53.174894861111106]}},
{"type":"Feature","properties":{"book":5,"series":1807,"place":"Stavoren","originalPlace":"Stavoren","description":"","date":"1807-10-13","triangles":[[{"place":"Robbezand","coordinates":[5.151526444444444,53.063056305555556]},{"place":"Harlingen","coordinates":[5.415180611111111,53.174894861111106]}],[{"place":"Enkhuizen","coordinates":[5.29571638888889,52.70437202777778]},{"place":"Urk","coordinates":[5.596606861111111,52.66293722222222]}],[{"place":"Urk","coordinates":[5.596606861111111,52.66293722222222]},{"place":"Lemmer","coordinates":[5.714362638888889,52.845533888888895]}],[{"place":"Medemblik","coordinates":[5.106387888888889,52.77379641666666]},{"place":"Enkhuizen","coordinates":[5.29571638888889,52.70437202777778]}],[{"place":"Medemblik","coordinates":[5.106387888888889,52.77379641666666]},{"place":"Oosterland","coordinates":[5.013460805555555,52.93206922222222]}],[{"place":"Robbezand","coordinates":[5.151526444444444,53.063056305555556]},{"place":"Oosterland","coordinates":[5.013460805555555,52.93206922222222]}]]},"geometry":{"type":"Point","coordinates":[5.363477111111111,52.88262088888889]}},
{"type":"Feature","properties":{"book":5,"series":1807,"place":"Sneek","originalPlace":"Sneek","description":"","date":"1807-10-16","triangles":[[{"place":"Leeuwarden","coordinates":[5.793071,53.2037835]},{"place":"Harlingen","coordinates":[5.415180611111111,53.174894861111106]}],[{"place":"Harlingen","coordinates":[5.415180611111111,53.174894861111106]},{"place":"Stavoren","coordinates":[5.363477111111111,52.88262088888889]}],[{"place":"Lemmer","coordinates":[5.714362638888889,52.845533888888895]},{"place":"Stavoren","coordinates":[5.363477111111111,52.88262088888889]}]]},"geometry":{"type":"Point","coordinates":[5.661878722222222,53.032617916666666]}},
{"type":"Feature","properties":{"book":5,"series":1807,"place":"Utrecht","originalPlace":"Utrecht","description":"","date":"1808-03-13","triangles":[[{"place":"Amsterdam","coordinates":[4.886434888888889,52.37505688888889]},{"place":"Naarden","coordinates":[5.165325666666666,52.29621572222222]}],[{"place":"Nieuwkoop","coordinates":[4.77977,52.15046]},{"place":"Amsterdam","coordinates":[4.886434888888889,52.37505688888889]}],[{"place":"Naarden","coordinates":[5.165325666666666,52.29621572222222]},{"place":"Amersfoort","coordinates":[5.390397472222222,52.155643222222224]}],[{"place":"Amersfoort","coordinates":[5.390397472222222,52.155643222222224]},{"place":"Rhenen","coordinates":[5.567464611111111,51.957366138888894]}],[{"place":"Gorinchem","coordinates":[4.97266,51.82955]},{"place":"Rhenen","coordinates":[5.567464611111111,51.957366138888894]}]]},"geometry":{"type":"Point","coordinates":[5.124360527777778,52.09109677777778]}},
{"type":"Feature","properties":{"book":6,"series":1810,"place":"Leiden","originalPlace":"Leide","description":"Tour de l'Eglise Catholique","date":"1810-04-06","triangles":[[{"place":"Nieuwkoop","coordinates":[4.77977,52.15046]},{"place":"Haarlem","coordinates":[4.639968916666667,52.38160038888889]}]]},"geometry":{"type":"Point","coordinates":[4.494308277777778,52.1564915]}},
{"type":"Feature","properties":{"book":6,"series":1810,"place":"Gouda","originalPlace":"Gouda","description":"","date":"1810-04-12","triangles":[[{"place":"Gorinchem","coordinates":[4.97266,51.82955]},{"place":"Utrecht","coordinates":[5.124360527777778,52.09109677777778]}],[{"place":"Nieuwkoop","coordinates":[4.77977,52.15046]},{"place":"Utrecht","coordinates":[5.124360527777778,52.09109677777778]}],[{"place":"Nieuwkoop","coordinates":[4.77977,52.15046]},{"place":"Leiden","coordinates":[4.494308277777778,52.1564915]}],[{"place":"Rotterdam","coordinates":[4.487647222222222,51.92186258333333]},{"place":"Leiden","coordinates":[4.494308277777778,52.1564915]}]]},"geometry":{"type":"Point","coordinates":[4.713431305555556,52.01114116666667]}},
{"type":"Feature","properties":{"book":6,"series":1810,"place":"Dordrecht","originalPlace":"Dordrecht","description":"","date":"1810-04-15","triangles":[[{"place":"Breda","coordinates":[4.777659944444444,51.58935072222222]},{"place":"Willemstad","coordinates":[4.440558972222222,51.692307694444445]}],[{"place":"Willemstad","coordinates":[4.440558972222222,51.692307694444445]},{"place":"Rotterdam","coordinates":[4.487647222222222,51.92186258333333]}],[{"place":"Gorinchem","coordinates":[4.97266,51.82955]},{"place":"Breda","coordinates":[4.777659944444444,51.58935072222222]}],[{"place":"Gorinchem","coordinates":[4.97266,51.82955]},{"place":"Gouda","coordinates":[4.713431305555556,52.01114116666667]}],[{"place":"Rotterdam","coordinates":[4.487647222222222,51.92186258333333]},{"place":"Gouda","coordinates":[4.713431305555556,52.01114116666667]}]]},"geometry":{"type":"Point","coordinates":[4.662706888888889,51.81457977777777]}},
{"type":"Feature","properties":{"book":6,"series":1810,"place":"Den Haag","originalPlace":"La Hage","description":"Clocher de St Jacques","date":"1810-04-26","triangles":[[{"place":"Brielle","coordinates":[4.16225,51.90264]},{"place":"Rotterdam","coordinates":[4.487647222222222,51.92186258333333]}],[{"place":"Rotterdam","coordinates":[4.487647222222222,51.92186258333333]},{"place":"Leiden","coordinates":[4.494308277777778,52.1564915]}]]},"geometry":{"type":"Point","coordinates":[4.3091812222222226,52.07778841666667]}},
{"type":"Feature","properties":{"book":6,"series":1810,"place":"Ballum","originalPlace":"Ballum (Chateau)","description":"","date":"1810-05-22","triangles":[[{"place":"Midsland","coordinates":[5.28504,53.38298]},{"place":"Harlingen","coordinates":[5.415180611111111,53.174894861111106]}],[{"place":"Leeuwarden","coordinates":[5.793071,53.2037835]},{"place":"Harlingen","coordinates":[5.415180611111111,53.174894861111106]}]]},"geometry":{"type":"Point","coordinates":[5.69115663888889,53.44212425]}},
{"type":"Feature","properties":{"book":6,"series":1810,"place":"Oldeholtpade","originalPlace":"Olde Holtpade","description":"","date":"1810-05-29","triangles":[[{"place":"Meppel","coordinates":[6.193451250000001,52.69799033333333]},{"place":"Blokzijl","coordinates":[5.9643366944444445,52.72775869444445]}],[{"place":"Blokzijl","coordinates":[5.9643366944444445,52.72775869444445]},{"place":"Lemmer","coordinates":[5.714362638888889,52.845533888888895]}],[{"place":"Lemmer","coordinates":[5.714362638888889,52.845533888888895]},{"place":"Sneek","coordinates":[5.661878722222222,53.032617916666666]}]]},"geometry":{"type":"Point","coordinates":[6.055176972222222,52.89575080555556]}},
{"type":"Feature","properties":{"book":6,"series":1810,"place":"Drachten","originalPlace":"Drachten","description":"","date":"1810-06-28","triangles":[[{"place":"Leeuwarden","coordinates":[5.793071,53.2037835]},{"place":"Sneek","coordinates":[5.661878722222222,53.032617916666666]}],[{"place":"Sneek","coordinates":[5.661878722222222,53.032617916666666]},{"place":"Oldeholtpade","coordinates":[6.055176972222222,52.89575080555556]}]]},"geometry":{"type":"Point","coordinates":[6.1045000555555555,53.10711916666667]}},
{"type":"Feature","properties":{"book":6,"series":1810,"place":"Dokkum","originalPlace":"Dockum","description":"","date":"1810-07-06","triangles":[[{"place":"Leeuwarden","coordinates":[5.793071,53.2037835]},{"place":"Ballum","coordinates":[5.69115663888889,53.44212425]}],[{"place":"Leeuwarden","coordinates":[5.793071,53.2037835]},{"place":"Drachten","coordinates":[6.1045000555555555,53.10711916666667]}]]},"geometry":{"type":"Point","coordinates":[6.001079861111111,53.327727055555556]}},
{"type":"Feature","properties":{"book":6,"series":1810,"place":"Oosterwolde","originalPlace":"Oosterwolde","description":"","date":"1810-07-10","triangles":[[{"place":"Oldeholtpade","coordinates":[6.055176972222222,52.89575080555556]},{"place":"Drachten","coordinates":[6.1045000555555555,53.10711916666667]}]]},"geometry":{"type":"Point","coordinates":[6.296794138888889,52.994553833333335]}},
{"type":"Feature","properties":{"book":6,"series":1810,"place":"Beilen","originalPlace":"Beilen","description":"","date":"1810-07-12","triangles":[[{"place":"Oldeholtpade","coordinates":[6.055176972222222,52.89575080555556]},{"place":"Oosterwolde","coordinates":[6.296794138888889,52.994553833333335]}],[{"place":"Coevorden","coordinates":[6.7436436111111115,52.66117791666667]},{"place":"Lemelerberg","coordinates":[6.411266444444444,52.47354266666667]}],[{"place":"Lemelerberg","coordinates":[6.411266444444444,52.47354266666667]},{"place":"Meppel","coordinates":[6.193451250000001,52.69799033333333]}],[{"place":"Meppel","coordinates":[6.193451250000001,52.69799033333333]},{"place":"Oldeholtpade","coordinates":[6.055176972222222,52.89575080555556]}]]},"geometry":{"type":"Point","coordinates":[6.519855166666667,52.858714194444445]}},
{"type":"Feature","properties":{"book":6,"series":1810,"place":"Rolde","originalPlace":"Rolde","description":"","date":"1810-07-16","triangles":[[{"place":"Oosterwolde","coordinates":[6.296794138888889,52.994553833333335]},{"place":"Beilen","coordinates":[6.519855166666667,52.858714194444445]}]]},"geometry":{"type":"Point","coordinates":[6.6495318333333335,52.989646694444446]}},
{"type":"Feature","properties":{"book":7,"series":1810,"place":"Gieten","originalPlace":"Gieten","description":"","date":"1810-07-20","triangles":[[{"place":"Beilen","coordinates":[6.519855166666667,52.858714194444445]},{"place":"Rolde","coordinates":[6.6495318333333335,52.989646694444446]}]]},"geometry":{"type":"Point","coordinates":[6.767864527777778,53.00626536111111]}},
{"type":"Feature","properties":{"book":7,"series":1810,"place":"Sleen","originalPlace":"Sleen","description":"","date":"1810-07-27","triangles":[[{"place":"Beilen","coordinates":[6.519855166666667,52.858714194444445]},{"place":"Rolde","coordinates":[6.6495318333333335,52.989646694444446]}],[{"place":"Beilen","coordinates":[6.519855166666667,52.858714194444445]},{"place":"Gieten","coordinates":[6.767864527777778,53.00626536111111]}],[{"place":"Coevorden","coordinates":[6.7436436111111115,52.66117791666667]},{"place":"Beilen","coordinates":[6.519855166666667,52.858714194444445]}],[{"place":"Rolde","coordinates":[6.6495318333333335,52.989646694444446]},{"place":"Gieten","coordinates":[6.767864527777778,53.00626536111111]}]]},"geometry":{"type":"Point","coordinates":[6.806566722222223,52.776657888888884]}},
{"type":"Feature","properties":{"book":6,"series":1810,"place":"Ter Apel","originalPlace":"Ter Apel","description":"","date":"1810-08-03","triangles":[]},"geometry":{"type":"Point","coordinates":[7.079199388888889,52.876769027777776]}},
{"type":"Feature","properties":{"book":7,"series":1810,"place":"Onstwedde","originalPlace":"Onstwedde","description":"","date":"1810-08-19","triangles":[[{"place":"Gieten","coordinates":[6.767864527777778,53.00626536111111]},{"place":"Sleen","coordinates":[6.806566722222223,52.776657888888884]}],[{"place":"Gieten","coordinates":[6.767864527777778,53.00626536111111]},{"place":"Ter Apel","coordinates":[7.079199388888889,52.876769027777776]}]]},"geometry":{"type":"Point","coordinates":[7.048437833333334,53.031334888888885]}},
{"type":"Feature","properties":{"book":7,"series":1810,"place":"Uithuizermeeden","originalPlace":"Uithuizen a Meden","description":"","date":"1810-08-27","triangles":[]},"geometry":{"type":"Point","coordinates":[6.713654722222222,53.40919847222222]}},
{"type":"Feature","properties":{"book":7,"series":1810,"place":"Hornhuizen","originalPlace":"Hornhuizen","description":"","date":"1810-09-03","triangles":[]},"geometry":{"type":"Point","coordinates":[6.363083944444444,53.38875766666666]}},
{"type":"Feature","properties":{"book":7,"series":1810,"place":"Groningen","originalPlace":"Groningue","description":"Clocher de St. Martin","date":"1810-09-11","triangles":[[{"place":"Dokkum","coordinates":[6.001079861111111,53.327727055555556]},{"place":"Hornhuizen","coordinates":[6.363083944444444,53.38875766666666]}],[{"place":"Drachten","coordinates":[6.1045000555555555,53.10711916666667]},{"place":"Dokkum","coordinates":[6.001079861111111,53.327727055555556]}],[{"place":"Drachten","coordinates":[6.1045000555555555,53.10711916666667]},{"place":"Oosterwolde","coordinates":[6.296794138888889,52.994553833333335]}],[{"place":"Oosterwolde","coordinates":[6.296794138888889,52.994553833333335]},{"place":"Rolde","coordinates":[6.6495318333333335,52.989646694444446]}],[{"place":"Uithuizermeeden","coordinates":[6.713654722222222,53.40919847222222]},{"place":"Hornhuizen","coordinates":[6.363083944444444,53.38875766666666]}]]},"geometry":{"type":"Point","coordinates":[6.572065388888889,53.22021758333334]}},
{"type":"Feature","properties":{"book":7,"series":1810,"place":"Midwolda","originalPlace":"Midwolde","description":"","date":"1810-09-26","triangles":[[{"place":"Onstwedde","coordinates":[7.048437833333334,53.031334888888885]},{"place":"Groningen","coordinates":[6.572065388888889,53.22021758333334]}]]},"geometry":{"type":"Point","coordinates":[7.014133611111111,53.19501616666666]}},
{"type":"Feature","properties":{"book":7,"series":1810,"place":"Holwierde","originalPlace":"Holwierde","description":"","date":"1810-10-05","triangles":[[{"place":"Uithuizermeeden","coordinates":[6.713654722222222,53.40919847222222]},{"place":"Groningen","coordinates":[6.572065388888889,53.22021758333334]}],[{"place":"Groningen","coordinates":[6.572065388888889,53.22021758333334]},{"place":"Midwolda","coordinates":[7.014133611111111,53.19501616666666]}]]},"geometry":{"type":"Point","coordinates":[6.874774416666667,53.35826319444445]}}]}
